{
    "posts": [
        {
            "lat": "60.14311",
            "lon": "16.48877",
            "name": "Bårbyhällan",
            "image": "barbyhallen.png",
            "description": "Ändra till vad det är för plats"
        },
        {
            "lat": "60.10663",
            "lon": "16.48095",
            "name": "Båtsportklubben",
            "image": "batsportklubben.png",
            "description": "A club for boat enthusiasts."
        },
        {
            "lat": "60.13159",
            "lon": "16.50868",
            "name": "Brattnäset",
            "image": "brattnaset.png",
            "description": "A scenic spot with a great view."
        },
        {
            "lat": "60.14203",
            "lon": "16.47466",
            "name": "Dragsheden öst",
            "image": "dragshedenost.png",
            "description": "An eastern spot at Dragsheden."
        },
        {
            "lat": "60.14346",
            "lon": "16.47136",
            "name": "Dragsheden väst",
            "image": "dragshedenvast.png",
            "description": "A western spot at Dragsheden."
        },
        {
            "lat": "60.1187",
            "lon": "16.44909",
            "name": "Göknäset",
            "image": "goknaset.png",
            "description": "A peaceful area to relax."
        },
        {
            "lat": "60.10404",
            "lon": "16.47415",
            "name": "Östa Camping",
            "image": "ostacamping.png",
            "description": "A popular camping spot."
        },
        {
            "lat": "60.10672",
            "lon": "16.47674",
            "name": "Östa norr",
            "image": "ostanorr.png",
            "description": "Northern part of Östa."
        },
        {
            "lat": "60.10565",
            "lon": "16.47127",
            "name": "Östa väst",
            "image": "ostavast.png",
            "description": "Western part of Östa."
        },
        {
            "lat": "60.12585",
            "lon": "16.47325",
            "name": "Sandön",
            "image": "sandon.png",
            "description": "A sandy island with beautiful views."
        },
        {
            "lat": "60.12755",
            "lon": "16.51035",
            "name": "Skekarsbo",
            "image": "skekarsbo.png",
            "description": "A quaint little village."
        },
        {
            "lat": "60.13012",
            "lon": "16.47824",
            "name": "Strångnäs",
            "image": "strangnas.png",
            "description": "A historic site with a rich history."
        }
    ]
}
